[
  {
    "id":1,
    "address" : "玄武区珠江路东大影壁55号",
    "name" : "金鹏饭店-停车场",
    "location":{
      "lng" : "116.349010",
      "lat" : "39.933347"
    },
    "telephone" : "84312241",
    "open_time":"06:00-18:00",
    "total":100,
    "using":60,
    "free":40
  },
  {
    "id":2,
    "address" : "胜利村路与胜华路交叉口南150米",
    "name" : "南京理工大学继续教育学院-停车场",
    "location":{
      "lng" : "116.349010",
      "lat" : "39.933347"
    },
    "telephone" : "88395514",
    "open_time":"06:00-18:00",
    "total":110,
    "using":20,
    "free":80
  },
  {
    "id":3,
    "address" : "光华路",
    "name" : "万达新村小区-地上停车场",
    "location":{
      "lng" : "116.349010",
      "lat" : "39.933347"
    },
    "telephone" : "84219101",
    "open_time":"全天",
    "total":60,
    "using":35,
    "free":25
  },
  {
    "id":4,
    "address" : "紫金东路2号",
    "name" : "紫金南苑小区-地下停车场",
    "location":{
      "lng" : "116.349010",
      "lat" : "39.933347"
    },
    "telephone" : "84236721",
    "open_time":"19:00-08:00",
    "total":70,
    "using":31,
    "free":39
  }
]